[
 {
   "name": "Pike Market Food Bank",
   "location": "1531 Western Ave\nSeattle WA 98101",
   "zipcode": 98101,
   "urgency": "Okay",
   "urgency_num": 60,
   "needs": "Coffee, rice, beans, +3 more",
   "distance": 0.9,
   "phone_number": "206-626-6462",
   "website": "http://www.pmfb.org",
   "img": "pike.jpg",
   "expanded_msg": "",
   "hours": "Tue: 9:30am - 3pm, \nWed: 3pm - 7pm, \nThu: 9:30am - 3pm, ",
   "display": "on"
 },
 {
   "name": "Salvation Army Food Bank",
   "location": "101 Pike St, Seattle, WA 98101",
   "zipcode": 98101,
   "urgency": "Moderate",
   "urgency_num": 40,
   "needs": "Canned meat, canned vegetables, +6 more",
   "distance": 1.1,
   "phone_number": "(206) 447-9944",
   "website": "https://www.salvationarmy.org",
   "img": "salvation_army.jpg",
   "expanded_msg": "",
   "hours": "Tue: 9am - 11:30am & 1pm - 3pm, \nWed: 9am - 11:30am & 1pm - 3pm, \nThu: 1pm - 3pm",
   "display": "on"
 },
 {
   "name": "FamilyWorks Wallingford",
   "location": "1501 North 45th Street\nSeattle, WA 98103",
   "zipcode": 98103,
   "urgency": "Okay",
   "urgency_num": 60,
   "needs": "Canned meat, canned vegetables, +6 more",
   "distance": 1.4,
   "phone_number": "(206) 694-6727",
   "website": "https://familyworksseattle.org/",
   "img": "fw.jpg",
   "expanded_msg": "Due to COVID-19 safety measures, please call ahead at (206) 694-6727 to schedule a no-contact donation drop-off.",
   "hours": "Tue: 12:00pm - 2:00pm, \nThu: 3:00pm - 6:00pm, \nFri: 11:00am - 1:00pm, ",
   "display": "on"
 },
 {
   "name": "U-District Food Bank",
   "location": "5017 Roosevelt Way NE\nSeattle, WA 98105",
   "zipcode": 98105,
   "urgency": "Urgent",
   "urgency_num": 20,
   "needs": "Diapers sizes 3-6, Canned protein items, chili, tuna, salmon, stew, ravioli or spaghetti-O's",
   "distance": 1.7,
   "phone_number": "(206) 523-7060",
   "website": "https://www.udistrictfoodbank.org/",
   "img": "udistrict.jpg",
   "expanded_msg": "",
   "hours": "Mon: 9am - 3pm, Tue: 11am - 8pm, Thu: 11am - 8pm, Fri: 11am - 4pm, Sat: 9am - 12pm",
   "display": "on"
 },
 {
   "name": "UW Food Pantry",
   "location": "Poplar Hall, 210\n1311 NE 41st St.  Seattle, WA 98105",
   "zipcode": 98105,
   "urgency": "Urgent",
   "urgency_num": 20,
   "needs": "Canned meat, canned vegetables, +6 more",
   "distance": 1.3,
   "phone_number": "(206) 523-7060",
   "website": "https://www.washington.edu/anyhungryhusky/the-uw-food-pantry/",
   "img": "uw_food_pantry.jpg",
   "expanded_msg": "",
   "hours": "Tue: 9am - 1pm & 3pm - 6pm, \nWed: 9am - 1pm & 3pm - 6pm,\nThu: 9am - 1pm & 3pm - 6pm",
   "display": "on"
 },
 {
   "name": "Ballard Food Bank",
   "location": "5130 Leary Ave. NW\nSeattle, WA 98107",
   "zipcode": 98107,
   "urgency": "Moderate",
   "urgency_num": 40,
   "needs": "Bread, Peanutbutter, +3 more",
   "distance": 1.9,
   "phone_number": "(206) 789-7800",
   "website": "https://www.ballardfoodbank.org/",
   "img": "ballard.jpg",
   "expanded_msg": "",
   "hours": "Mon: 8am - 12pm, \nTue: 8:00 am - 10:30 am, \nWed 8:00 am - 10:30 am, \nThu: 8:00 am - 12:00 pm",
   "display": "on"
 },
 {
   "name": "Providence Regina House",
   "location": "8201 10th Ave. S. #6 Seattle, WA 98108\n",
   "zipcode": 98108,
   "urgency": "Okay",
   "urgency_num": 60,
   "needs": "Canned meat, canned vegetables, +6 more",
   "distance": 2.1,
   "phone_number": "206-763-9204",
   "website": "https://washington.providence.org/locations-directory/r/regina-house",
   "img": "providence.jpg",
   "expanded_msg": "",
   "hours": "Sat: 9am - 12pm, \nMon: 5:30am - 6:30pm, \nWed: 5:30am - 6:30pm, \nThu: 12:30am - 2pm, \nFri: 5:30am - 6:30pm",
   "display": "on"
 },
 {
   "name": "St. Vincent de Paul Georgetown Foodbank",
   "location": "5972 4th Ave S, Seattle, WA 98108",
   "zipcode": 98108,
   "urgency": "Moderate",
   "urgency_num": 40,
   "needs": "Feminine Products, Oatmeal Packets",
   "distance": 2.5,
   "phone_number": "(206) 767-9975",
   "website": "https://svdpseattle.org",
   "img": "st_vincent.jpg",
   "expanded_msg": "",
   "hours": "Tue: 11am - 2pm, Thu: 11am - 2pm, Fri: 11am - 2pm",
   "display": "on"
 },
 {
   "name": "Queen Anne Food Bank at Sacred Heart",
   "location": "232 Warren Ave N, Seattle, WA 98109",
   "zipcode": 98109,
   "urgency": "Okay",
   "urgency_num": 60,
   "needs": "Feminine Products, Oatmeal Packets",
   "distance": 2.2,
   "phone_number": "(206) 216-4102",
   "website": "https://qafb.org",
   "img": "queen_anne.jpg",
   "expanded_msg": "",
   "hours": "Mon - Fri: 8:30am - 11: 30am",
   "display": "on"
 },
 {
   "name": "Rainier Valley Food Bank",
   "location": "4205 Rainier Ave S\nSeattle, WA 98118",
   "zipcode": 98118,
   "urgency": "Urgent",
   "urgency_num": 20,
   "needs": "Canned meat, canned vegetables, +6 more",
   "distance": 2.8,
   "phone_number": "(206) 723-4105",
   "website": "http://www.rvfb.org",
   "img": "rainier_valley.jpg",
   "expanded_msg": "",
   "hours": "Wed: 9:30am - 2pm, Sat: 9:30am - 2pm",
   "display": "on"
 },
 {
   "name": "Puget Sound Labor Agency",
   "location": "2800 1st Ave, Seattle, WA 98121",
   "zipcode": 98121,
   "urgency": "Good",
   "urgency_num": 80,
   "needs": "Canned meat, canned vegetables, +6 more",
   "distance": 3.1,
   "phone_number": "(206) 448-9277",
   "website": "https://www.pugetsoundlaboragency.org",
   "img": "psla.jpg",
   "expanded_msg": "",
   "hours": "Mon: 8am - 12pm, \nWed: 4pm - 7pm, \nFri: 8am - 12pm",
   "display": "on"
 },
 {
   "name": "Byrd Barr Place Food Bank",
   "location": "722 18th Ave, Seattle, WA 98122",
   "zipcode": 98122,
   "urgency": "Moderate",
   "urgency_num": 40,
   "needs": "Bread, Peanutbutter, +3 more",
   "distance": 3.2,
   "phone_number": "(206) 812-4970",
   "website": "https://byrdbarrplace.org/programs-services/food-bank/",
   "img": "byrd_barr.jpg",
   "expanded_msg": "",
   "hours": "\nTue: 11 am - 4 pm, \nWed: 12 pm - 4 pm, \nThu: 9 am - 1 pm",
   "display": "on"
 },
 {
   "name": "JFS Polack Food Bank",
   "location": "1601 16th Ave, Seattle, WA 98122",
   "zipcode": 98122,
   "urgency": "Good",
   "urgency_num": 80,
   "needs": "Canned meat, canned vegetables, +6 more",
   "distance": 4.5,
   "phone_number": "(206) 461-3240",
   "website": "https://www.jfsseattle.org/get-help/polack-food-bank/",
   "img": "js.jpg",
   "expanded_msg": "",
   "hours": "Mon: 5:30am - 7:30pm, \nWed: 10:00am - 12pm, \nThu: 2:00am - 4:00pm, \nFri: 10:00am - 12pm",
   "display": "on"
 },
 {
   "name": "North Helpline",
   "location": "12736 33rd Ave NE\nSeattle WA 98125",
   "zipcode": 98125,
   "urgency": "Good",
   "urgency_num": 80,
   "needs": "Coffee, rice, beans. +3 more",
   "distance": 3.5,
   "phone_number": "206.367.3477",
   "website": "http://www.northhelpline.org/",
   "img": "north_helpline.jpg",
   "expanded_msg": "",
   "hours": "Wed: 10 am - 1 pm, \nThu: 4:30 pm - 6:30 pm, \nSat: 10 am - 11 am, \n(senior and disabled clients) \n11am - 1 pm, \n(all clients) ",
   "display": "on"
 },
 {
   "name": "West Seattle Foodbank",
   "location": "3419 Southwest Morgan Street\nSeattle, WA 98126",
   "zipcode": 98126,
   "urgency": "Okay",
   "urgency_num": 60,
   "needs": "Feminine Products, Oatmeal Packets",
   "distance": 4.2,
   "phone_number": "206.932.9023",
   "website": "https://westseattlefoodbank.org/",
   "img": "ws.jpg",
   "expanded_msg": "",
   "hours": "Seniors (55 & over) \nTue: 9:00 am - 1:00 pm, \nGeneral Public \nWed: 10:00 am - 3:00 pm, \nThu: 9:00 am - 2:00 pm, \nFri: 10:00 am -  2:00 pm",
   "display": "on"
 },
 {
   "name": "Food Bank at St Marys",
   "location": "611 20th Ave South\nSeattle, WA 98144",
   "zipcode": 98144,
   "urgency": "Good",
   "urgency_num": 80,
   "needs": "Coffee, rice, beans. +3 more",
   "distance": 4.1,
   "phone_number": "206) 324-7100",
   "website": "https://www.thefbsm.org",
   "img": "st_marys.jpg",
   "expanded_msg": "",
   "hours": "Mon: 10:00am -1:00pm, Wed: 10:00am -1:00pm, Fri: 10:00am -1:00pm \n",
   "display": "on"
 },
 {
   "name": "White Center Food Bank",
   "location": "10829 8TH AVENUE SOUTHWEST, SEATTLE, WA, 98146",
   "zipcode": 98146,
   "urgency": "Okay",
   "urgency_num": 60,
   "needs": "Canned meat, canned vegetables, +6 more",
   "distance": 4.7,
   "phone_number": "206-762-2848",
   "website": "https://www.whitecenterfoodbank.org",
   "img": "white_center.jpg",
   "expanded_msg": "",
   "hours": "Mon: 12:00pm - 3:45pm, Wed: 10:00am - 1:45pm, Fri: 10:00am - 1:45pm",
   "display": "on"
 }
]